{
  "type": "FeatureCollection",
  "features": [
    {
      "type": "Feature",
      "properties": {
        "Name": "Mediolanum Forum"
      },
      "geometry": {
        "coordinates": [9.142893788438244, 45.40174126446283],
        "type": "Point"
      },
      "id": 0
    },
    {
      "type": "Feature",
      "properties": {
        "Name": "San Siro Stadium"
      },
      "geometry": {
        "coordinates": [9.123803467013573, 45.47817362507877],
        "type": "Point"
      },
      "id": 1
    },
    {
      "type": "Feature",
      "properties": {
        "Name": "Stadio Olimpico"
      },
      "geometry": {
        "coordinates": [12.454821495240992, 41.93439511656484],
        "type": "Point"
      },
      "id": 2
    },
    {
      "type": "Feature",
      "properties": {
        "Name": "Circo Massimo"
      },
      "geometry": {
        "coordinates": [12.48542678463889, 41.88611895340705],
        "type": "Point"
      },
      "id": 3
    },
    {
      "type": "Feature",
      "properties": {
        "Name": "Piazza del Popolo"
      },
      "geometry": {
        "coordinates": [12.476123443030872, 41.9113010134937],
        "type": "Point"
      },
      "id": 4
    },
    {
      "type": "Feature",
      "properties": {
        "Name": "Campo de' Fiori"
      },
      "geometry": {
        "coordinates": [12.472039552960013, 41.89575937380209],
        "type": "Point"
      },
      "id": 5
    },
    {
      "type": "Feature",
      "properties": {
        "Name": "Fabrique Milano"
      },
      "geometry": {
        "coordinates": [9.252171906314487, 45.45249180520145],
        "type": "Point"
      },
      "id": 6
    },
    {
      "type": "Feature",
      "properties": {
        "Name": "Alcatraz Milano"
      },
      "geometry": {
        "coordinates": [9.18287094302761, 45.4946968985939],
        "type": "Point"
      },
      "id": 7
    },
    {
      "type": "Feature",
      "properties": {
        "Name": "Piazza del Plebiscito"
      },
      "geometry": {
        "coordinates": [14.248877703793028, 40.83629125129082],
        "type": "Point"
      },
      "id": 8
    },
    {
      "type": "Feature",
      "properties": {
        "Name": "Stadio Diego Armando Maradona"
      },
      "geometry": {
        "coordinates": [14.192940747995522, 40.82810230536322],
        "type": "Point"
      },
      "id": 9
    },
    {
      "type": "Feature",
      "properties": {
        "Name": "Arena Flegrea"
      },
      "geometry": {
        "coordinates": [14.185599406382892, 40.82576044634689],
        "type": "Point"
      },
      "id": 10
    },
    {
      "type": "Feature",
      "properties": {
        "Name": "Giardini Reali"
      },
      "geometry": {
        "coordinates": [7.689507254306278, 45.072518188612065],
        "type": "Point"
      },
      "id": 11
    },
    {
      "type": "Feature",
      "properties": {
        "Name": "Piazza San Carlo"
      },
      "geometry": {
        "coordinates": [7.682524016318382, 45.06781693059651],
        "type": "Point"
      },
      "id": 12
    },
    {
      "type": "Feature",
      "properties": {
        "Name": "Giardini Margherita"
      },
      "geometry": {
        "coordinates": [11.35260947781731, 44.48324728505605],
        "type": "Point"
      },
      "id": 13
    },
    {
      "type": "Feature",
      "properties": {
        "Name": "Unipol Arena"
      },
      "geometry": {
        "coordinates": [11.24796940638251, 44.48600546327046],
        "type": "Point"
      },
      "id": 14
    },
    {
      "type": "Feature",
      "properties": {
        "Name": "Piazza Verdi"
      },
      "geometry": {
        "coordinates": [11.350516284638132, 44.496266921730154],
        "type": "Point"
      },
      "id": 15
    },
    {
      "type": "Feature",
      "properties": {
        "Name": "Allianz Stadium"
      },
      "geometry": {
        "coordinates": [7.641203747997025, 45.10969258738476],
        "type": "Point"
      },
      "id": 16
    }
  ]
}
