[
    {
        "properties": {
            "Name": "Mediolanum Forum"
        },
        "geometry": {
            "coordinates": [9.142893788438244, 45.40174126446283],
            "type": "Point"
        }
    },
    {
        "properties": {
            "Name": "San Siro Stadium"
        },
        "geometry": {
            "coordinates": [9.123803467013573, 45.47817362507877],
            "type": "Point"
        }
    },
    {
        "properties": {
            "Name": "Stadio Olimpico"
        },
        "geometry": {
            "coordinates": [12.454821495240992, 41.93439511656484],
            "type": "Point"
        }
    },
    {
        "properties": {
            "Name": "Circo Massimo"
        },
        "geometry": {
            "coordinates": [12.48542678463889, 41.88611895340705],
            "type": "Point"
        }
    },
    {
        "properties": {
            "Name": "Piazza del Popolo"
        },
        "geometry": {
            "coordinates": [12.476123443030872, 41.9113010134937],
            "type": "Point"
        }
    },
    {
        "properties": {
            "Name": "Campo de' Fiori"
        },
        "geometry": {
            "coordinates": [12.472039552960013, 41.89575937380209],
            "type": "Point"
        }
    },
    {
        "properties": {
            "Name": "Fabrique Milano"
        },
        "geometry": {
            "coordinates": [9.252171906314487, 45.45249180520145],
            "type": "Point"
        }
    },
    {
        "properties": {
            "Name": "Alcatraz Milano"
        },
        "geometry": {
            "coordinates": [9.18287094302761, 45.4946968985939],
            "type": "Point"
        }
    },
    {
        "properties": {
            "Name": "Piazza del Plebiscito"
        },
        "geometry": {
            "coordinates": [14.248877703793028, 40.83629125129082],
            "type": "Point"
        }
    },
    {
        "properties": {
            "Name": "Stadio Diego Armando Maradona"
        },
        "geometry": {
            "coordinates": [14.192940747995522, 40.82810230536322],
            "type": "Point"
        }
    },
    {
        "properties": {
            "Name": "Arena Flegrea"
        },
        "geometry": {
            "coordinates": [14.185599406382892, 40.82576044634689],
            "type": "Point"
        }
    },
    {
        "properties": {
            "Name": "Giardini Reali"
        },
        "geometry": {
            "coordinates": [7.689507254306278, 45.072518188612065],
            "type": "Point"
        }
    },
    {
        "properties": {
            "Name": "Piazza San Carlo"
        },
        "geometry": {
            "coordinates": [7.682524016318382, 45.06781693059651],
            "type": "Point"
        }
    },
    {
        "properties": {
            "Name": "Giardini Margherita"
        },
        "geometry": {
            "coordinates": [11.35260947781731, 44.48324728505605],
            "type": "Point"
        }
    },
    {
        "properties": {
            "Name": "Unipol Arena"
        },
        "geometry": {
            "coordinates": [11.24796940638251, 44.48600546327046],
            "type": "Point"
        }
    },
    {
        "properties": {
            "Name": "Piazza Verdi"
        },
        "geometry": {
            "coordinates": [11.350516284638132, 44.496266921730154],
            "type": "Point"
        }
    },
    {
        "properties": {
            "Name": "Allianz Stadium"
        },
        "geometry": {
            "coordinates": [7.641203747997025, 45.10969258738476],
            "type": "Point"
        }
    }
]
